{
"type": "FeatureCollection",
"crs": { "type": "name", "properties": { "name": "urn:ogc:def:crs:OGC:1.3:CRS84" } },
                                                                                
"features": [
{ "type": "Feature", "properties": { "osm_id": "274086722", "name": "Likuni", "barrier": null, "highway": null, "ref": null, "address": null, "is_in": "Malawi", "place": null, "man_made": null, "other_tags": "\"amenity\"=>\"hospital\",\"healthcare\"=>\"hospital\"" }, "geometry": { "type": "Point", "coordinates": [ 33.7066948, -14.0281706 ] } },
{ "type": "Feature", "properties": { "osm_id": "393314003", "name": "Maula Pharmacies", "barrier": null, "highway": null, "ref": null, "address": null, "is_in": null, "place": null, "man_made": null, "other_tags": "\"amenity\"=>\"pharmacy\",\"healthcare\"=>\"pharmacy\"" }, "geometry": { "type": "Point", "coordinates": [ 33.7629288, -13.9814862 ] } },
{ "type": "Feature", "properties": { "osm_id": "476497668", "name": "Mvera Mission Hospital", "barrier": null, "highway": null, "ref": null, "address": null, "is_in": null, "place": null, "man_made": null, "other_tags": "\"amenity\"=>\"hospital\"" }, "geometry": { "type": "Point", "coordinates": [ 34.1245453, -13.7301317 ] } },
{ "type": "Feature", "properties": { "osm_id": "476501750", "name": "Nyungwe Hospital", "barrier": null, "highway": null, "ref": null, "address": null, "is_in": null, "place": null, "man_made": null, "other_tags": "\"amenity\"=>\"hospital\"" }, "geometry": { "type": "Point", "coordinates": [ 34.1077203, -10.2874619 ] } },
{ "type": "Feature", "properties": { "osm_id": "476507020", "name": "Ntaja Hospital Center", "barrier": null, "highway": null, "ref": null, "address": null, "is_in": null, "place": null, "man_made": null, "other_tags": "\"amenity\"=>\"hospital\"" }, "geometry": { "type": "Point", "coordinates": [ 35.5288368, -14.8731706 ] } },
{ "type": "Feature", "properties": { "osm_id": "561309681", "name": "Ntchisi Hospital", "barrier": null, "highway": null, "ref": null, "address": null, "is_in": null, "place": null, "man_made": null, "other_tags": "\"amenity\"=>\"hospital\",\"healthcare\"=>\"hospital\"" }, "geometry": { "type": "Point", "coordinates": [ 33.9119377, -13.3639647 ] } },
{ "type": "Feature", "properties": { "osm_id": "561318036", "name": "kasungu District Hospital (KDH)", "barrier": null, "highway": null, "ref": null, "address": null, "is_in": null, "place": null, "man_made": null, "other_tags": "\"amenity\"=>\"hospital\"" }, "geometry": { "type": "Point", "coordinates": [ 33.4802145, -13.0358972 ] } },
{ "type": "Feature", "properties": { "osm_id": "902487973", "name": null, "barrier": null, "highway": null, "ref": null, "address": null, "is_in": null, "place": null, "man_made": null, "other_tags": "\"amenity\"=>\"pharmacy\"" }, "geometry": { "type": "Point", "coordinates": [ 35.258079, -14.484183 ] } },
{ "type": "Feature", "properties": { "osm_id": "902487975", "name": "Mangochi District Hospital", "barrier": null, "highway": null, "ref": null, "address": null, "is_in": null, "place": null, "man_made": null, "other_tags": "\"amenity\"=>\"hospital\"" }, "geometry": { "type": "Point", "coordinates": [ 35.2651307, -14.481954 ] } },
{ "type": "Feature", "properties": { "osm_id": "920497053", "name": "Machinga District Hospital", "barrier": null, "highway": null, "ref": null, "address": null, "is_in": null, "place": null, "man_made": null, "other_tags": "\"amenity\"=>\"hospital\"" }, "geometry": { "type": "Point", "coordinates": [ 35.2245388, -15.0619153 ] } },
{ "type": "Feature", "properties": { "osm_id": "1023278824", "name": "Loudon Hospital", "barrier": null, "highway": null, "ref": null, "address": null, "is_in": null, "place": null, "man_made": null, "other_tags": "\"amenity\"=>\"hospital\"" }, "geometry": { "type": "Point", "coordinates": [ 33.4751639, -12.138055 ] } },
{ "type": "Feature", "properties": { "osm_id": "1096948266", "name": "Neno District Hospital", "barrier": null, "highway": null, "ref": null, "address": null, "is_in": null, "place": null, "man_made": null, "other_tags": "\"amenity\"=>\"hospital\"" }, "geometry": { "type": "Point", "coordinates": [ 34.6533534, -15.3951824 ] } },
{ "type": "Feature", "properties": { "osm_id": "1138046291", "name": "Zalewa Health Center", "barrier": null, "highway": null, "ref": null, "address": null, "is_in": null, "place": null, "man_made": null, "other_tags": "\"amenity\"=>\"hospital\"" }, "geometry": { "type": "Point", "coordinates": [ 34.8499233, -15.4479497 ] } },
{ "type": "Feature", "properties": { "osm_id": "1259594976", "name": "Neno Parish Health Center", "barrier": null, "highway": null, "ref": null, "address": null, "is_in": null, "place": null, "man_made": null, "other_tags": "\"amenity\"=>\"hospital\"" }, "geometry": { "type": "Point", "coordinates": [ 34.6087445, -15.4373237 ] } },
{ "type": "Feature", "properties": { "osm_id": "1269919855", "name": "Midzemba Health Center", "barrier": null, "highway": null, "ref": null, "address": null, "is_in": null, "place": null, "man_made": null, "other_tags": "\"amenity\"=>\"hospital\"" }, "geometry": { "type": "Point", "coordinates": [ 34.8404944, -15.3476222 ] } },
{ "type": "Feature", "properties": { "osm_id": "1269919859", "name": "Matandani Health Center", "barrier": null, "highway": null, "ref": null, "address": null, "is_in": null, "place": null, "man_made": null, "other_tags": "\"amenity\"=>\"hospital\"" }, "geometry": { "type": "Point", "coordinates": [ 34.6599029, -15.3218382 ] } },
{ "type": "Feature", "properties": { "osm_id": "1269920168", "name": "Magaleta Health Center", "barrier": null, "highway": null, "ref": null, "address": null, "is_in": null, "place": null, "man_made": null, "other_tags": "\"amenity\"=>\"hospital\"" }, "geometry": { "type": "Point", "coordinates": [ 34.6280384, -15.5509983 ] } },
{ "type": "Feature", "properties": { "osm_id": "1269920169", "name": "Chifunga Health Center", "barrier": null, "highway": null, "ref": null, "address": null, "is_in": null, "place": null, "man_made": null, "other_tags": "\"amenity\"=>\"hospital\"" }, "geometry": { "type": "Point", "coordinates": [ 34.6995021, -15.5960412 ] } },
{ "type": "Feature", "properties": { "osm_id": "1612918621", "name": "Milepa Health Centre", "barrier": null, "highway": null, "ref": null, "address": null, "is_in": null, "place": null, "man_made": null, "other_tags": "\"amenity\"=>\"hospital\"" }, "geometry": { "type": "Point", "coordinates": [ 35.3910155, -15.6867096 ] } },
{ "type": "Feature", "properties": { "osm_id": "1629688666", "name": "Ehehleni Health Center", "barrier": null, "highway": null, "ref": null, "address": null, "is_in": null, "place": null, "man_made": null, "other_tags": "\"amenity\"=>\"hospital\"" }, "geometry": { "type": "Point", "coordinates": [ 33.587834, -12.2639557 ] } },
{ "type": "Feature", "properties": { "osm_id": "1692074129", "name": "Mikolongwe Health Centre", "barrier": null, "highway": null, "ref": null, "address": null, "is_in": null, "place": null, "man_made": null, "other_tags": "\"amenity\"=>\"hospital\"" }, "geometry": { "type": "Point", "coordinates": [ 35.1841144, -15.9013616 ] } },
{ "type": "Feature", "properties": { "osm_id": "1693602252", "name": "Makungwa Health Centre", "barrier": null, "highway": null, "ref": null, "address": null, "is_in": null, "place": null, "man_made": null, "other_tags": "\"amenity\"=>\"hospital\"" }, "geometry": { "type": "Point", "coordinates": [ 35.0266549, -15.9394923 ] } },
{ "type": "Feature", "properties": { "osm_id": "1883763938", "name": null, "barrier": null, "highway": null, "ref": null, "address": null, "is_in": null, "place": null, "man_made": null, "other_tags": "\"amenity\"=>\"pharmacy\",\"healthcare\"=>\"pharmacy\"" }, "geometry": { "type": "Point", "coordinates": [ 33.7919099, -13.9379925 ] } },
{ "type": "Feature", "properties": { "osm_id": "2031724422", "name": "ABC Clinic", "barrier": null, "highway": null, "ref": null, "address": null, "is_in": null, "place": null, "man_made": null, "other_tags": "\"amenity\"=>\"clinic\"" }, "geometry": { "type": "Point", "coordinates": [ 33.7415478, -13.9683411 ] } },
{ "type": "Feature", "properties": { "osm_id": "2503725855", "name": "St. Anne's Hospital", "barrier": null, "highway": null, "ref": null, "address": null, "is_in": null, "place": null, "man_made": null, "other_tags": "\"amenity\"=>\"hospital\"" }, "geometry": { "type": "Point", "coordinates": [ 34.641025, -11.0982796 ] } },
{ "type": "Feature", "properties": { "osm_id": "2718556778", "name": null, "barrier": null, "highway": null, "ref": null, "address": null, "is_in": null, "place": null, "man_made": null, "other_tags": "\"amenity\"=>\"pharmacy\",\"healthcare\"=>\"pharmacy\"" }, "geometry": { "type": "Point", "coordinates": [ 35.0249287, -15.8067846 ] } },
{ "type": "Feature", "properties": { "osm_id": "3065361682", "name": "Nchalo Medicine Shop", "barrier": null, "highway": null, "ref": null, "address": null, "is_in": null, "place": null, "man_made": null, "other_tags": "\"amenity\"=>\"pharmacy\",\"healthcare\"=>\"pharmacy\"" }, "geometry": { "type": "Point", "coordinates": [ 34.8718316, -16.2668492 ] } },
{ "type": "Feature", "properties": { "osm_id": "3068404943", "name": "Lilongwe Private Clinic", "barrier": null, "highway": null, "ref": null, "address": null, "is_in": null, "place": null, "man_made": null, "other_tags": "\"amenity\"=>\"clinic\",\"healthcare\"=>\"clinic\"" }, "geometry": { "type": "Point", "coordinates": [ 33.7921826, -13.938796 ] } },
{ "type": "Feature", "properties": { "osm_id": "3075055995", "name": "L.C. Pharmacy", "barrier": null, "highway": null, "ref": null, "address": null, "is_in": null, "place": null, "man_made": null, "other_tags": "\"amenity\"=>\"pharmacy\"" }, "geometry": { "type": "Point", "coordinates": [ 34.6254424, -14.8050387 ] } },
{ "type": "Feature", "properties": { "osm_id": "3089037829", "name": "Nkhoma Eye Clinic", "barrier": null, "highway": null, "ref": null, "address": null, "is_in": null, "place": null, "man_made": null, "other_tags": "\"amenity\"=>\"hospital\",\"healthcare\"=>\"hospital\"" }, "geometry": { "type": "Point", "coordinates": [ 33.7812222, -13.9949903 ] } },
{ "type": "Feature", "properties": { "osm_id": "3241061865", "name": "Life Pharmacies", "barrier": null, "highway": null, "ref": null, "address": null, "is_in": null, "place": null, "man_made": null, "other_tags": "\"amenity\"=>\"pharmacy\",\"dispensing\"=>\"no\",\"healthcare\"=>\"pharmacy\"" }, "geometry": { "type": "Point", "coordinates": [ 35.0044239, -15.7899457 ] } },
{ "type": "Feature", "properties": { "osm_id": "3443531901", "name": "Nakalanzi Health Centre", "barrier": null, "highway": null, "ref": null, "address": null, "is_in": null, "place": null, "man_made": null, "other_tags": "\"amenity\"=>\"hospital\"" }, "geometry": { "type": "Point", "coordinates": [ 34.5490415, -14.2017512 ] } },
{ "type": "Feature", "properties": { "osm_id": "4362825003", "name": "Ntuluko Health Facility", "barrier": null, "highway": null, "ref": null, "address": null, "is_in": null, "place": null, "man_made": null, "other_tags": "\"amenity\"=>\"clinic\"" }, "geometry": { "type": "Point", "coordinates": [ 35.6500931, -14.8919013 ] } },
{ "type": "Feature", "properties": { "osm_id": "4394514289", "name": "Citipharm", "barrier": null, "highway": null, "ref": null, "address": null, "is_in": null, "place": null, "man_made": null, "other_tags": "\"amenity\"=>\"pharmacy\"" }, "geometry": { "type": "Point", "coordinates": [ 35.0613675, -15.8129246 ] } },
{ "type": "Feature", "properties": { "osm_id": "4429368137", "name": null, "barrier": null, "highway": null, "ref": null, "address": null, "is_in": null, "place": null, "man_made": null, "other_tags": "\"amenity\"=>\"clinic\"" }, "geometry": { "type": "Point", "coordinates": [ 33.9243821, -9.940606 ] } },
{ "type": "Feature", "properties": { "osm_id": "4429376033", "name": "Banja La Mtsogolo Clinic", "barrier": null, "highway": null, "ref": null, "address": null, "is_in": null, "place": null, "man_made": null, "other_tags": "\"amenity\"=>\"clinic\"" }, "geometry": { "type": "Point", "coordinates": [ 33.9244813, -9.9403309 ] } },
{ "type": "Feature", "properties": { "osm_id": "4429427996", "name": "Maneno Private Clinic", "barrier": null, "highway": null, "ref": null, "address": null, "is_in": null, "place": null, "man_made": null, "other_tags": "\"amenity\"=>\"clinic\"" }, "geometry": { "type": "Point", "coordinates": [ 33.9244637, -9.9400674 ] } },
{ "type": "Feature", "properties": { "osm_id": "4430590190", "name": null, "barrier": null, "highway": null, "ref": null, "address": null, "is_in": null, "place": null, "man_made": null, "other_tags": "\"amenity\"=>\"pharmacy\"" }, "geometry": { "type": "Point", "coordinates": [ 33.9263577, -9.9387502 ] } },
{ "type": "Feature", "properties": { "osm_id": "4439024095", "name": "Kalulu Clinic", "barrier": null, "highway": null, "ref": null, "address": null, "is_in": null, "place": null, "man_made": null, "other_tags": "\"amenity\"=>\"clinic\",\"name:en\"=>\"Kalulu Clinic\",\"opening_hours\"=>\"Mo-Fr 07:00-17:00; Sa-Su 09:00-11:00\"" }, "geometry": { "type": "Point", "coordinates": [ 34.9118316, -16.2413853 ] } },
{ "type": "Feature", "properties": { "osm_id": "4439097690", "name": "Factory Clinic (Illovo)", "barrier": null, "highway": null, "ref": null, "address": null, "is_in": null, "place": null, "man_made": null, "other_tags": "\"amenity\"=>\"clinic\",\"name:en\"=>\"Factory Clinic (Illovo)\",\"opening_hours\"=>\"Mo-Fr 07:00-17:00; Sa-Su 09:00-11:00\"" }, "geometry": { "type": "Point", "coordinates": [ 34.8916079, -16.2582258 ] } },
{ "type": "Feature", "properties": { "osm_id": "4453610793", "name": "Pharmcare", "barrier": null, "highway": null, "ref": null, "address": null, "is_in": null, "place": null, "man_made": null, "other_tags": "\"amenity\"=>\"pharmacy\",\"healthcare\"=>\"pharmacy\",\"name:en\"=>\"Pharmcare\"" }, "geometry": { "type": "Point", "coordinates": [ 33.7688362, -13.9870801 ] } },
{ "type": "Feature", "properties": { "osm_id": "4453653390", "name": null, "barrier": null, "highway": null, "ref": null, "address": null, "is_in": null, "place": null, "man_made": null, "other_tags": "\"amenity\"=>\"clinic\"" }, "geometry": { "type": "Point", "coordinates": [ 34.9141297, -14.0841035 ] } },
{ "type": "Feature", "properties": { "osm_id": "4456207091", "name": "Medical Clinic", "barrier": null, "highway": null, "ref": null, "address": null, "is_in": null, "place": null, "man_made": null, "other_tags": "\"amenity\"=>\"clinic\",\"name:en\"=>\"Medical Clinic\"" }, "geometry": { "type": "Point", "coordinates": [ 34.3437566, -14.3971991 ] } },
{ "type": "Feature", "properties": { "osm_id": "4456207092", "name": "Partner Clinic", "barrier": null, "highway": null, "ref": null, "address": null, "is_in": null, "place": null, "man_made": null, "other_tags": "\"amenity\"=>\"clinic\",\"name:en\"=>\"Partner Clinic\"" }, "geometry": { "type": "Point", "coordinates": [ 34.3357839, -14.3948107 ] } },
{ "type": "Feature", "properties": { "osm_id": "4456212490", "name": "Chacogo Medical Clinic", "barrier": null, "highway": null, "ref": null, "address": null, "is_in": null, "place": null, "man_made": null, "other_tags": "\"amenity\"=>\"clinic\",\"name:en\"=>\"Chacogo Medical Clinic\"" }, "geometry": { "type": "Point", "coordinates": [ 33.8319377, -14.0730265 ] } },
{ "type": "Feature", "properties": { "osm_id": "4462709793", "name": "One Stop Pharmacy", "barrier": null, "highway": null, "ref": null, "address": null, "is_in": null, "place": null, "man_made": null, "other_tags": "\"addr:city\"=>\"Blantyre\",\"amenity\"=>\"pharmacy\",\"healthcare\"=>\"pharmacy\",\"name:en\"=>\"One Stop Pharmacy\"" }, "geometry": { "type": "Point", "coordinates": [ 35.0056574, -15.7859665 ] } },
{ "type": "Feature", "properties": { "osm_id": "4462717095", "name": "Pharma Plus Pharmacy", "barrier": null, "highway": null, "ref": null, "address": null, "is_in": null, "place": null, "man_made": null, "other_tags": "\"addr:city\"=>\"Blantyre\",\"addr:street\"=>\"Victoria Avenue\",\"amenity\"=>\"pharmacy\",\"healthcare\"=>\"pharmacy\",\"name:en\"=>\"Pharma Plus Pharmacy\"" }, "geometry": { "type": "Point", "coordinates": [ 35.0054674, -15.7847576 ] } },
{ "type": "Feature", "properties": { "osm_id": "4464672594", "name": "The Clinic", "barrier": null, "highway": null, "ref": null, "address": null, "is_in": null, "place": null, "man_made": null, "other_tags": "\"amenity\"=>\"clinic\",\"check_date\"=>\"2026-03-20\",\"healthcare\"=>\"clinic\",\"name:en\"=>\"The Clinic\",\"opening_hours\"=>\"24\/7\"" }, "geometry": { "type": "Point", "coordinates": [ 33.7642415, -13.9848775 ] } },
{ "type": "Feature", "properties": { "osm_id": "4464691592", "name": "Mitch Pharmacy", "barrier": null, "highway": null, "ref": null, "address": null, "is_in": null, "place": null, "man_made": null, "other_tags": "\"amenity\"=>\"pharmacy\",\"healthcare\"=>\"pharmacy\",\"opening_hours\"=>\"Mo-Su 08:00-21:00\",\"phone\"=>\"+265 111551 893\"" }, "geometry": { "type": "Point", "coordinates": [ 33.7669679, -13.9847598 ] } },
{ "type": "Feature", "properties": { "osm_id": "4478365812", "name": "Mpiri Health Centre", "barrier": null, "highway": null, "ref": null, "address": null, "is_in": null, "place": null, "man_made": null, "other_tags": "\"amenity\"=>\"clinic\"" }, "geometry": { "type": "Point", "coordinates": [ 35.6071268, -14.7724199 ] } },
{ "type": "Feature", "properties": { "osm_id": "4478365813", "name": "Mpiri Health Centre (Old)", "barrier": null, "highway": null, "ref": null, "address": null, "is_in": null, "place": null, "man_made": null, "other_tags": "\"amenity\"=>\"clinic\"" }, "geometry": { "type": "Point", "coordinates": [ 35.6061424, -14.7729956 ] } },
{ "type": "Feature", "properties": { "osm_id": "4613944589", "name": "Ndaiwala Rural Health Centre", "barrier": null, "highway": null, "ref": null, "address": null, "is_in": null, "place": null, "man_made": null, "other_tags": "\"amenity\"=>\"clinic\"" }, "geometry": { "type": "Point", "coordinates": [ 32.933676, -12.798715 ] } },
{ "type": "Feature", "properties": { "osm_id": "4726583501", "name": "Namadidi Health Center", "barrier": null, "highway": null, "ref": null, "address": null, "is_in": null, "place": null, "man_made": null, "other_tags": "\"amenity\"=>\"hospital\"" }, "geometry": { "type": "Point", "coordinates": [ 35.2476252, -15.4101839 ] } },
{ "type": "Feature", "properties": { "osm_id": "4740267125", "name": "Pirimiti Community Hospital", "barrier": null, "highway": null, "ref": null, "address": null, "is_in": null, "place": null, "man_made": null, "other_tags": "\"amenity\"=>\"hospital\"" }, "geometry": { "type": "Point", "coordinates": [ 35.4510854, -15.4852235 ] } },
{ "type": "Feature", "properties": { "osm_id": "4818854325", "name": "Kanjedza MediClinic (MASM)", "barrier": null, "highway": null, "ref": null, "address": null, "is_in": null, "place": null, "man_made": null, "other_tags": "\"amenity\"=>\"hospital\"" }, "geometry": { "type": "Point", "coordinates": [ 35.0550247, -15.8126957 ] } },
{ "type": "Feature", "properties": { "osm_id": "4857871217", "name": "Baptist Medical Clinic", "barrier": null, "highway": null, "ref": null, "address": null, "is_in": null, "place": null, "man_made": null, "other_tags": "\"amenity\"=>\"clinic\"" }, "geometry": { "type": "Point", "coordinates": [ 34.5953454, -13.7413383 ] } },
{ "type": "Feature", "properties": { "osm_id": "4875432359", "name": "Likuni Drug Store", "barrier": null, "highway": null, "ref": null, "address": null, "is_in": null, "place": null, "man_made": null, "other_tags": "\"amenity\"=>\"pharmacy\",\"healthcare\"=>\"pharmacy\"" }, "geometry": { "type": "Point", "coordinates": [ 33.712538, -14.0263392 ] } },
{ "type": "Feature", "properties": { "osm_id": "4946370136", "name": "Minoo's Dental Clinic", "barrier": null, "highway": null, "ref": null, "address": null, "is_in": null, "place": null, "man_made": null, "other_tags": "\"amenity\"=>\"dentist\",\"healthcare\"=>\"dentist\",\"name:en\"=>\"Minoo's Dental Clinic\"" }, "geometry": { "type": "Point", "coordinates": [ 33.7661316, -13.9819829 ] } },
{ "type": "Feature", "properties": { "osm_id": "4946382521", "name": "One Stop Pharmacy", "barrier": null, "highway": null, "ref": null, "address": null, "is_in": null, "place": null, "man_made": null, "other_tags": "\"amenity\"=>\"pharmacy\",\"healthcare\"=>\"pharmacy\",\"name:en\"=>\"One Stop Pharmacy\"" }, "geometry": { "type": "Point", "coordinates": [ 33.7638489, -13.9825134 ] } },
{ "type": "Feature", "properties": { "osm_id": "4965986524", "name": "ULONGWE CATHOLIC Health Centre", "barrier": null, "highway": null, "ref": null, "address": null, "is_in": null, "place": null, "man_made": null, "other_tags": "\"amenity\"=>\"clinic\",\"name:en\"=>\"ULONGWE CATHOLIC Health Centre\"" }, "geometry": { "type": "Point", "coordinates": [ 35.1769452, -14.8621609 ] } },
{ "type": "Feature", "properties": { "osm_id": "4965998321", "name": "BALAKO DHO Health Centre", "barrier": null, "highway": null, "ref": null, "address": null, "is_in": null, "place": null, "man_made": null, "other_tags": "\"amenity\"=>\"clinic\",\"name:en\"=>\"BALAKO DHO Health Centre\"" }, "geometry": { "type": "Point", "coordinates": [ 35.2245955, -14.8531637 ] } },
{ "type": "Feature", "properties": { "osm_id": "4969023442", "name": "Mwamupatwa Health Centre", "barrier": null, "highway": null, "ref": null, "address": null, "is_in": null, "place": null, "man_made": null, "other_tags": "\"amenity\"=>\"hospital\"" }, "geometry": { "type": "Point", "coordinates": [ 33.8669497, -9.8084541 ] } },
{ "type": "Feature", "properties": { "osm_id": "5276605521", "name": null, "barrier": null, "highway": null, "ref": null, "address": null, "is_in": null, "place": null, "man_made": null, "other_tags": "\"amenity\"=>\"pharmacy\"" }, "geometry": { "type": "Point", "coordinates": [ 34.4407761, -13.7711126 ] } },
{ "type": "Feature", "properties": { "osm_id": "5332030022", "name": "Royal Dental Clinic", "barrier": null, "highway": null, "ref": null, "address": null, "is_in": null, "place": null, "man_made": null, "other_tags": "\"amenity\"=>\"dentist\",\"healthcare\"=>\"dentist\",\"opening_hours\"=>\"Mo-Fr 09:00-16:00\"" }, "geometry": { "type": "Point", "coordinates": [ 33.7749204, -13.9892116 ] } },
{ "type": "Feature", "properties": { "osm_id": "5333621823", "name": "Pharmacy", "barrier": null, "highway": null, "ref": null, "address": null, "is_in": null, "place": null, "man_made": null, "other_tags": "\"amenity\"=>\"pharmacy\",\"name:en\"=>\"Pharmacy\"" }, "geometry": { "type": "Point", "coordinates": [ 35.315454, -15.3863131 ] } },
{ "type": "Feature", "properties": { "osm_id": "5344400622", "name": null, "barrier": null, "highway": null, "ref": null, "address": null, "is_in": null, "place": null, "man_made": null, "other_tags": "\"amenity\"=>\"dentist\",\"healthcare\"=>\"dentist\"" }, "geometry": { "type": "Point", "coordinates": [ 33.7783591, -13.9532783 ] } },
{ "type": "Feature", "properties": { "osm_id": "5359156225", "name": "Good hope pvt clinic", "barrier": null, "highway": null, "ref": null, "address": null, "is_in": null, "place": null, "man_made": null, "other_tags": "\"addr:housenumber\"=>\"area3 lilongwe\",\"addr:street\"=>\"Barron Avenue\",\"amenity\"=>\"clinic\",\"healthcare\"=>\"clinic\",\"phone\"=>\"+2651362369\"" }, "geometry": { "type": "Point", "coordinates": [ 33.7642676, -14.0066068 ] } },
{ "type": "Feature", "properties": { "osm_id": "5410102521", "name": "PHARMALIFE Pharmacies Ltd", "barrier": null, "highway": null, "ref": null, "address": null, "is_in": null, "place": null, "man_made": null, "other_tags": "\"addr:housenumber\"=>\"Shop#208\",\"addr:postcode\"=>\"0003\",\"addr:street\"=>\"Game Complex, Next PEP\",\"amenity\"=>\"pharmacy\",\"email\"=>\"pharmalifepharmacies@gmail.com\",\"healthcare\"=>\"pharmacy\",\"opening_hours\"=>\"Mo-Su 07:30-21:30\",\"operator\"=>\"Aaron Glyn Sosola\",\"phone\"=>\"+265-994255524\",\"website\"=>\"https:\/\/www.pharmalife.com\/\"" }, "geometry": { "type": "Point", "coordinates": [ 33.7698215, -13.9872487 ] } },
{ "type": "Feature", "properties": { "osm_id": "5540801321", "name": "Pharmalife Pharmacies Ltd", "barrier": null, "highway": null, "ref": null, "address": null, "is_in": null, "place": null, "man_made": null, "other_tags": "\"addr:postcode\"=>\"0003\",\"addr:street\"=>\"Kenyatta Road\",\"amenity\"=>\"pharmacy\",\"email\"=>\"pharmalifepharmacies@gmail.com\",\"healthcare\"=>\"pharmacy\",\"opening_hours\"=>\"Mo-Su 07:30-21:30\",\"operator\"=>\"Sosola family\",\"phone\"=>\"+265-994255524\"" }, "geometry": { "type": "Point", "coordinates": [ 33.7870764, -13.9738792 ] } },
{ "type": "Feature", "properties": { "osm_id": "5567732924", "name": "Misuku Health Centre", "barrier": null, "highway": null, "ref": null, "address": null, "is_in": null, "place": null, "man_made": null, "other_tags": "\"amenity\"=>\"hospital\",\"healthcare\"=>\"hospital\"" }, "geometry": { "type": "Point", "coordinates": [ 33.5208266, -9.6796507 ] } },
{ "type": "Feature", "properties": { "osm_id": "5567732925", "name": "Mwalingo Private Hospital", "barrier": null, "highway": null, "ref": null, "address": null, "is_in": null, "place": null, "man_made": null, "other_tags": "\"amenity\"=>\"hospital\",\"healthcare\"=>\"hospital\",\"operator\"=>\"Misuku Coffee Cooperative\"" }, "geometry": { "type": "Point", "coordinates": [ 33.5327069, -9.6695534 ] } },
{ "type": "Feature", "properties": { "osm_id": "5623535522", "name": "Lufita Drug Store", "barrier": null, "highway": null, "ref": null, "address": null, "is_in": null, "place": null, "man_made": null, "other_tags": "\"amenity\"=>\"pharmacy\"" }, "geometry": { "type": "Point", "coordinates": [ 33.2724538, -9.7023403 ] } },
{ "type": "Feature", "properties": { "osm_id": "5635218825", "name": "Care Polyclinic Limited", "barrier": null, "highway": null, "ref": null, "address": null, "is_in": null, "place": null, "man_made": null, "other_tags": "\"amenity\"=>\"clinic\",\"healthcare\"=>\"clinic\"" }, "geometry": { "type": "Point", "coordinates": [ 33.7638451, -13.9903576 ] } },
{ "type": "Feature", "properties": { "osm_id": "5674018523", "name": "Chuba Clinic", "barrier": null, "highway": null, "ref": null, "address": null, "is_in": null, "place": null, "man_made": null, "other_tags": "\"amenity\"=>\"clinic\",\"healthcare\"=>\"clinic\"" }, "geometry": { "type": "Point", "coordinates": [ 33.464918, -9.6501199 ] } },
{ "type": "Feature", "properties": { "osm_id": "5828992186", "name": "Thandizo Private Clinic", "barrier": null, "highway": null, "ref": null, "address": null, "is_in": null, "place": null, "man_made": null, "other_tags": "\"amenity\"=>\"clinic\",\"healthcare\"=>\"clinic\"" }, "geometry": { "type": "Point", "coordinates": [ 35.0872818, -15.8372574 ] } },
{ "type": "Feature", "properties": { "osm_id": "6456315491", "name": "Family Dental Clinic", "barrier": null, "highway": null, "ref": null, "address": null, "is_in": null, "place": null, "man_made": null, "other_tags": "\"amenity\"=>\"dentist\",\"healthcare\"=>\"dentist\"" }, "geometry": { "type": "Point", "coordinates": [ 33.7846073, -13.9565435 ] } },
{ "type": "Feature", "properties": { "osm_id": "6461548731", "name": "Company Medical officer office", "barrier": null, "highway": null, "ref": null, "address": null, "is_in": null, "place": null, "man_made": null, "other_tags": "\"amenity\"=>\"doctors\",\"description\"=>\"office\"" }, "geometry": { "type": "Point", "coordinates": [ 34.8918749, -16.2584598 ] } },
{ "type": "Feature", "properties": { "osm_id": "6461551698", "name": "QECH Eye department", "barrier": null, "highway": null, "ref": null, "address": null, "is_in": null, "place": null, "man_made": null, "other_tags": "\"amenity\"=>\"hospital\",\"healthcare\"=>\"hospital\"" }, "geometry": { "type": "Point", "coordinates": [ 35.023682, -15.801583 ] } },
{ "type": "Feature", "properties": { "osm_id": "6461561642", "name": "QECH Obstetric ward", "barrier": null, "highway": null, "ref": null, "address": null, "is_in": null, "place": null, "man_made": null, "other_tags": "\"amenity\"=>\"hospital\",\"healthcare\"=>\"hospital\"" }, "geometry": { "type": "Point", "coordinates": [ 35.0221464, -15.8017159 ] } },
{ "type": "Feature", "properties": { "osm_id": "6461562513", "name": "QECH Gynaecology ward", "barrier": null, "highway": null, "ref": null, "address": null, "is_in": null, "place": null, "man_made": null, "other_tags": "\"amenity\"=>\"hospital\",\"healthcare\"=>\"hospital\"" }, "geometry": { "type": "Point", "coordinates": [ 35.0221652, -15.8019933 ] } },
{ "type": "Feature", "properties": { "osm_id": "6461564079", "name": "Labour ward", "barrier": null, "highway": null, "ref": null, "address": null, "is_in": null, "place": null, "man_made": null, "other_tags": "\"amenity\"=>\"hospital\",\"healthcare\"=>\"hospital\"" }, "geometry": { "type": "Point", "coordinates": [ 35.0224254, -15.8021301 ] } },
{ "type": "Feature", "properties": { "osm_id": "6461571589", "name": "Paediatric outpatient department", "barrier": null, "highway": null, "ref": null, "address": null, "is_in": null, "place": null, "man_made": null, "other_tags": "\"amenity\"=>\"hospital\",\"healthcare\"=>\"hospital\"" }, "geometry": { "type": "Point", "coordinates": [ 35.021496, -15.802134 ] } },
{ "type": "Feature", "properties": { "osm_id": "6461573596", "name": "Paediatric clinics", "barrier": null, "highway": null, "ref": null, "address": null, "is_in": null, "place": null, "man_made": null, "other_tags": "\"amenity\"=>\"hospital\",\"healthcare\"=>\"hospital\"" }, "geometry": { "type": "Point", "coordinates": [ 35.0214987, -15.8019533 ] } },
{ "type": "Feature", "properties": { "osm_id": "6461575219", "name": "Adult AETC department", "barrier": null, "highway": null, "ref": null, "address": null, "is_in": null, "place": null, "man_made": null, "other_tags": "\"amenity\"=>\"hospital\",\"healthcare\"=>\"hospital\"" }, "geometry": { "type": "Point", "coordinates": [ 35.0206954, -15.8021636 ] } },
{ "type": "Feature", "properties": { "osm_id": "6461577785", "name": "Family planning clinic", "barrier": null, "highway": null, "ref": null, "address": null, "is_in": null, "place": null, "man_made": null, "other_tags": "\"amenity\"=>\"hospital\",\"healthcare\"=>\"hospital\"" }, "geometry": { "type": "Point", "coordinates": [ 35.0216207, -15.8024824 ] } },
{ "type": "Feature", "properties": { "osm_id": "6461614415", "name": "Medical doctors residence", "barrier": null, "highway": null, "ref": null, "address": null, "is_in": null, "place": null, "man_made": null, "other_tags": "\"amenity\"=>\"hospital\",\"healthcare\"=>\"hospital\"" }, "geometry": { "type": "Point", "coordinates": [ 35.0224841, -15.804463 ] } },
{ "type": "Feature", "properties": { "osm_id": "6461614416", "name": "Postnatal ward", "barrier": null, "highway": null, "ref": null, "address": null, "is_in": null, "place": null, "man_made": null, "other_tags": "\"amenity\"=>\"hospital\",\"healthcare\"=>\"hospital\"" }, "geometry": { "type": "Point", "coordinates": [ 35.0229508, -15.8020654 ] } },
{ "type": "Feature", "properties": { "osm_id": "6461623044", "name": "John Hopkins Research Project", "barrier": null, "highway": null, "ref": null, "address": null, "is_in": null, "place": null, "man_made": null, "other_tags": "\"amenity\"=>\"hospital\",\"healthcare\"=>\"hospital\"" }, "geometry": { "type": "Point", "coordinates": [ 35.02362, -15.8026603 ] } },
{ "type": "Feature", "properties": { "osm_id": "6461623045", "name": "ENT department", "barrier": null, "highway": null, "ref": null, "address": null, "is_in": null, "place": null, "man_made": null, "other_tags": "\"amenity\"=>\"hospital\",\"healthcare\"=>\"hospital\"" }, "geometry": { "type": "Point", "coordinates": [ 35.0234242, -15.8029752 ] } },
{ "type": "Feature", "properties": { "osm_id": "6461626491", "name": "Malaria Alert Centre", "barrier": null, "highway": null, "ref": null, "address": null, "is_in": null, "place": null, "man_made": null, "other_tags": "\"amenity\"=>\"hospital\",\"healthcare\"=>\"hospital\"" }, "geometry": { "type": "Point", "coordinates": [ 35.0229428, -15.8047701 ] } },
{ "type": "Feature", "properties": { "osm_id": "6461643908", "name": "Chatinkha Nursery", "barrier": null, "highway": null, "ref": null, "address": null, "is_in": null, "place": null, "man_made": null, "other_tags": "\"amenity\"=>\"hospital\",\"healthcare\"=>\"hospital\"" }, "geometry": { "type": "Point", "coordinates": [ 35.0226627, -15.8016698 ] } },
{ "type": "Feature", "properties": { "osm_id": "6461643909", "name": "Hospital Director's Office", "barrier": null, "highway": null, "ref": null, "address": null, "is_in": null, "place": null, "man_made": null, "other_tags": "\"amenity\"=>\"hospital\",\"healthcare\"=>\"hospital\"" }, "geometry": { "type": "Point", "coordinates": [ 35.0200663, -15.8018582 ] } },
{ "type": "Feature", "properties": { "osm_id": "6463828714", "name": "Nkombezi Clinic", "barrier": null, "highway": null, "ref": null, "address": null, "is_in": null, "place": null, "man_made": null, "other_tags": "\"amenity\"=>\"clinic\",\"description\"=>\"Illovo clinic\",\"healthcare\"=>\"clinic\"" }, "geometry": { "type": "Point", "coordinates": [ 34.8818327, -16.2777391 ] } },
{ "type": "Feature", "properties": { "osm_id": "6463828715", "name": "Mangulenje Clinic", "barrier": null, "highway": null, "ref": null, "address": null, "is_in": null, "place": null, "man_made": null, "other_tags": "\"amenity\"=>\"clinic\",\"description\"=>\"Illovo Clinic\",\"healthcare\"=>\"clinic\",\"healthcare:speciality\"=>\"general\"" }, "geometry": { "type": "Point", "coordinates": [ 34.8546593, -16.2221493 ] } },
{ "type": "Feature", "properties": { "osm_id": "6463833509", "name": "Mwanza Clinic", "barrier": null, "highway": null, "ref": null, "address": null, "is_in": null, "place": null, "man_made": null, "other_tags": "\"amenity\"=>\"clinic\",\"healthcare\"=>\"clinic\"" }, "geometry": { "type": "Point", "coordinates": [ 34.8805347, -16.1894739 ] } },
{ "type": "Feature", "properties": { "osm_id": "6463835248", "name": "Lengwe Clinic", "barrier": null, "highway": null, "ref": null, "address": null, "is_in": null, "place": null, "man_made": null, "other_tags": "\"amenity\"=>\"clinic\",\"healthcare\"=>\"clinic\"" }, "geometry": { "type": "Point", "coordinates": [ 34.7995923, -16.2003155 ] } },
{ "type": "Feature", "properties": { "osm_id": "6463850993", "name": "Nkombezi Clinic", "barrier": null, "highway": null, "ref": null, "address": null, "is_in": null, "place": null, "man_made": null, "other_tags": "\"amenity\"=>\"clinic\",\"healthcare\"=>\"clinic\"" }, "geometry": { "type": "Point", "coordinates": [ 34.8817872, -16.2777613 ] } },
{ "type": "Feature", "properties": { "osm_id": "6463855777", "name": "Mlambe Outreach Clinic", "barrier": null, "highway": null, "ref": null, "address": null, "is_in": null, "place": null, "man_made": null, "other_tags": "\"amenity\"=>\"clinic\",\"healthcare\"=>\"clinic\"" }, "geometry": { "type": "Point", "coordinates": [ 34.8757651, -16.2260225 ] } },
{ "type": "Feature", "properties": { "osm_id": "6463899104", "name": "Alumenda Clinic", "barrier": null, "highway": null, "ref": null, "address": null, "is_in": null, "place": null, "man_made": null, "other_tags": "\"amenity\"=>\"clinic\",\"description\"=>\"Illovo Clinic\",\"healthcare\"=>\"clinic\"" }, "geometry": { "type": "Point", "coordinates": [ 34.8857877, -16.4033208 ] } },
{ "type": "Feature", "properties": { "osm_id": "6476261435", "name": "Centro de Saúde de Chissimbir", "barrier": null, "highway": null, "ref": null, "address": null, "is_in": null, "place": null, "man_made": null, "other_tags": "\"alt_name\"=>\"Chizimbir\",\"amenity\"=>\"clinic\",\"healthcare\"=>\"clinic\",\"source:date\"=>\"2017\"" }, "geometry": { "type": "Point", "coordinates": [ 35.365866, -14.0249168 ] } },
{ "type": "Feature", "properties": { "osm_id": "6551596685", "name": "Pharmacare Pharmacies", "barrier": null, "highway": null, "ref": null, "address": null, "is_in": null, "place": null, "man_made": null, "other_tags": "\"addr:street\"=>\"Glyn Jones Road\",\"amenity\"=>\"pharmacy\",\"healthcare\"=>\"pharmacy\",\"phone\"=>\"01820001\"" }, "geometry": { "type": "Point", "coordinates": [ 35.0078027, -15.7855031 ] } },
{ "type": "Feature", "properties": { "osm_id": "6802281386", "name": "Mzuzu Youth Life Centre", "barrier": null, "highway": null, "ref": null, "address": null, "is_in": null, "place": null, "man_made": null, "other_tags": "\"amenity\"=>\"clinic\"" }, "geometry": { "type": "Point", "coordinates": [ 34.017394, -11.4614824 ] } },
{ "type": "Feature", "properties": { "osm_id": "6815961885", "name": "Tiwonge Private Clinic", "barrier": null, "highway": null, "ref": null, "address": null, "is_in": null, "place": null, "man_made": null, "other_tags": "\"amenity\"=>\"clinic\",\"healthcare\"=>\"clinic\",\"opening_hours\"=>\"Mo-Sa 07:30-18:30\",\"phone\"=>\"0882182350\"" }, "geometry": { "type": "Point", "coordinates": [ 34.2111788, -10.4528037 ] } },
{ "type": "Feature", "properties": { "osm_id": "6815961985", "name": "Tiwonge Dental", "barrier": null, "highway": null, "ref": null, "address": null, "is_in": null, "place": null, "man_made": null, "other_tags": "\"amenity\"=>\"dentist\",\"healthcare\"=>\"dentist\"" }, "geometry": { "type": "Point", "coordinates": [ 34.2112767, -10.452768 ] } },
{ "type": "Feature", "properties": { "osm_id": "6823009385", "name": "Shalom Private Clinic", "barrier": null, "highway": null, "ref": null, "address": null, "is_in": null, "place": null, "man_made": null, "other_tags": "\"amenity\"=>\"clinic\",\"healthcare\"=>\"clinic\",\"opening_hours\"=>\"Mo-Sa 07:30-20:00\",\"phone\"=>\"0999916024\"" }, "geometry": { "type": "Point", "coordinates": [ 34.2104959, -10.45384 ] } },
{ "type": "Feature", "properties": { "osm_id": "7121510972", "name": "Ikombe Dispensary", "barrier": null, "highway": null, "ref": null, "address": null, "is_in": null, "place": null, "man_made": null, "other_tags": "\"amenity\"=>\"clinic\",\"facility_type\"=>\"Dispensary\",\"ward\"=>\"Matema\"" }, "geometry": { "type": "Point", "coordinates": [ 34.0639268, -9.5180524 ] } },
{ "type": "Feature", "properties": { "osm_id": "7121510975", "name": "Busisya Health Centre", "barrier": null, "highway": null, "ref": null, "address": null, "is_in": null, "place": null, "man_made": null, "other_tags": "\"amenity\"=>\"clinic\",\"facility_type\"=>\"Health Centre\",\"ward\"=>\"Matema\"" }, "geometry": { "type": "Point", "coordinates": [ 34.064745, -9.5212283 ] } },
{ "type": "Feature", "properties": { "osm_id": "7148258390", "name": "Madawa Phamacy", "barrier": null, "highway": null, "ref": null, "address": null, "is_in": null, "place": null, "man_made": null, "other_tags": "\"amenity\"=>\"pharmacy\",\"operator:type\"=>\"private\"" }, "geometry": { "type": "Point", "coordinates": [ 33.91015, -9.693505 ] } },
{ "type": "Feature", "properties": { "osm_id": "7148258392", "name": null, "barrier": null, "highway": null, "ref": null, "address": null, "is_in": null, "place": null, "man_made": null, "other_tags": "\"amenity\"=>\"pharmacy\",\"operator:type\"=>\"private\"" }, "geometry": { "type": "Point", "coordinates": [ 33.8973833, -9.6872 ] } },
{ "type": "Feature", "properties": { "osm_id": "7532250401", "name": "Kamuzu Central Hospital", "barrier": null, "highway": null, "ref": null, "address": null, "is_in": null, "place": null, "man_made": null, "other_tags": "\"amenity\"=>\"hospital\"" }, "geometry": { "type": "Point", "coordinates": [ 35.6869329, -15.7175331 ] } },
{ "type": "Feature", "properties": { "osm_id": "7563304511", "name": null, "barrier": null, "highway": null, "ref": null, "address": null, "is_in": null, "place": null, "man_made": null, "other_tags": "\"amenity\"=>\"hospital\",\"healthcare\"=>\"hospital\"" }, "geometry": { "type": "Point", "coordinates": [ 34.0653991, -12.3652881 ] } },
{ "type": "Feature", "properties": { "osm_id": "7608912603", "name": "Shifa Hospital", "barrier": null, "highway": null, "ref": null, "address": null, "is_in": null, "place": null, "man_made": null, "other_tags": "\"addr:city\"=>\"Blantyre\",\"addr:street\"=>\"Haile Selassie Avenue\",\"amenity\"=>\"hospital\",\"healthcare\"=>\"hospital\",\"name:en\"=>\"Shifa Hospital\"" }, "geometry": { "type": "Point", "coordinates": [ 35.0104319, -15.7872418 ] } },
{ "type": "Feature", "properties": { "osm_id": "7609128523", "name": null, "barrier": null, "highway": null, "ref": null, "address": null, "is_in": null, "place": null, "man_made": null, "other_tags": "\"amenity\"=>\"hospital\",\"healthcare\"=>\"hospital\"" }, "geometry": { "type": "Point", "coordinates": [ 35.1712106, -16.2892604 ] } },
{ "type": "Feature", "properties": { "osm_id": "7780255385", "name": "Ndirande Community hall", "barrier": null, "highway": null, "ref": null, "address": null, "is_in": null, "place": null, "man_made": null, "other_tags": "\"amenity\"=>\"hospital\"" }, "geometry": { "type": "Point", "coordinates": [ 35.0392757, -15.7786777 ] } },
{ "type": "Feature", "properties": { "osm_id": "7780264585", "name": "Madina Islamic private Hospital", "barrier": null, "highway": null, "ref": null, "address": null, "is_in": null, "place": null, "man_made": null, "other_tags": "\"amenity\"=>\"hospital\"" }, "geometry": { "type": "Point", "coordinates": [ 35.0385392, -15.776204 ] } },
{ "type": "Feature", "properties": { "osm_id": "8333352776", "name": "GenNex", "barrier": null, "highway": null, "ref": null, "address": null, "is_in": null, "place": null, "man_made": null, "other_tags": "\"addr:street\"=>\"Santa Plaza\",\"amenity\"=>\"pharmacy\",\"healthcare\"=>\"pharmacy\",\"phone\"=>\"+265993821466\"" }, "geometry": { "type": "Point", "coordinates": [ 33.7616602, -13.9784065 ] } },
{ "type": "Feature", "properties": { "osm_id": "8337419517", "name": "Makata", "barrier": null, "highway": null, "ref": null, "address": null, "is_in": null, "place": null, "man_made": null, "other_tags": "\"amenity\"=>\"clinic\",\"email\"=>\"omarsulani@ymail.c\",\"phone\"=>\"0994060054\"" }, "geometry": { "type": "Point", "coordinates": [ 35.0801488, -15.6299419 ] } },
{ "type": "Feature", "properties": { "osm_id": "8345664017", "name": "Makata heath Centre", "barrier": null, "highway": null, "ref": null, "address": null, "is_in": null, "place": null, "man_made": null, "other_tags": "\"amenity\"=>\"clinic\"" }, "geometry": { "type": "Point", "coordinates": [ 35.0796733, -15.630083 ] } },
{ "type": "Feature", "properties": { "osm_id": "8363862818", "name": "Mbamba Bay Hospital", "barrier": null, "highway": null, "ref": null, "address": null, "is_in": null, "place": null, "man_made": null, "other_tags": "\"amenity\"=>\"hospital\"" }, "geometry": { "type": "Point", "coordinates": [ 34.8048786, -11.289713 ] } },
{ "type": "Feature", "properties": { "osm_id": "8368019518", "name": "QECH Main Laboratory", "barrier": null, "highway": null, "ref": null, "address": null, "is_in": null, "place": null, "man_made": null, "other_tags": "\"addr:street\"=>\"Chipatala Avenue\",\"amenity\"=>\"hospital\",\"healthcare\"=>\"hospital\"" }, "geometry": { "type": "Point", "coordinates": [ 35.0209243, -15.8023349 ] } },
{ "type": "Feature", "properties": { "osm_id": "8639706876", "name": "Chikwawa District Hospital", "barrier": null, "highway": null, "ref": null, "address": null, "is_in": null, "place": null, "man_made": null, "other_tags": "\"amenity\"=>\"hospital\"" }, "geometry": { "type": "Point", "coordinates": [ 34.792285, -16.0234222 ] } },
{ "type": "Feature", "properties": { "osm_id": "8650674779", "name": "Dr Anthony's Dental Clinic", "barrier": null, "highway": null, "ref": null, "address": null, "is_in": null, "place": null, "man_made": null, "other_tags": "\"addr:street\"=>\"Young road\",\"amenity\"=>\"dentist\",\"healthcare\"=>\"dentist\",\"opening_hours\"=>\"Mo-Fr 08:30-15:30; Sa 09:00-13:00\",\"phone\"=>\"+265994741931\"" }, "geometry": { "type": "Point", "coordinates": [ 33.7571746, -13.9870773 ] } },
{ "type": "Feature", "properties": { "osm_id": "9131089517", "name": "Malambwe", "barrier": null, "highway": null, "ref": null, "address": null, "is_in": null, "place": null, "man_made": null, "other_tags": "\"amenity\"=>\"hospital\"" }, "geometry": { "type": "Point", "coordinates": [ 35.6310474, -15.4999131 ] } },
{ "type": "Feature", "properties": { "osm_id": "9131089617", "name": "Mtemanyama", "barrier": null, "highway": null, "ref": null, "address": null, "is_in": null, "place": null, "man_made": null, "other_tags": "\"amenity\"=>\"hospital\"" }, "geometry": { "type": "Point", "coordinates": [ 35.7321827, -15.5913017 ] } },
{ "type": "Feature", "properties": { "osm_id": "9131089717", "name": "Mtemanyama", "barrier": null, "highway": null, "ref": null, "address": null, "is_in": null, "place": null, "man_made": null, "other_tags": "\"amenity\"=>\"hospital\"" }, "geometry": { "type": "Point", "coordinates": [ 35.7321779, -15.5921099 ] } },
{ "type": "Feature", "properties": { "osm_id": "9131089817", "name": "Maoni", "barrier": null, "highway": null, "ref": null, "address": null, "is_in": null, "place": null, "man_made": null, "other_tags": "\"amenity\"=>\"hospital\"" }, "geometry": { "type": "Point", "coordinates": [ 35.8111735, -15.6759394 ] } },
{ "type": "Feature", "properties": { "osm_id": "9131089818", "name": "Chiradzulu Malikiyelo", "barrier": null, "highway": null, "ref": null, "address": null, "is_in": null, "place": null, "man_made": null, "other_tags": "\"amenity\"=>\"hospital\"" }, "geometry": { "type": "Point", "coordinates": [ 35.14509, -15.5456533 ] } },
{ "type": "Feature", "properties": { "osm_id": "9131089819", "name": "Mwembere", "barrier": null, "highway": null, "ref": null, "address": null, "is_in": null, "place": null, "man_made": null, "other_tags": "\"amenity\"=>\"hospital\"" }, "geometry": { "type": "Point", "coordinates": [ 35.3908818, -15.5364041 ] } },
{ "type": "Feature", "properties": { "osm_id": "9131090017", "name": "Zomba Fikila", "barrier": null, "highway": null, "ref": null, "address": null, "is_in": null, "place": null, "man_made": null, "other_tags": "\"amenity\"=>\"hospital\"" }, "geometry": { "type": "Point", "coordinates": [ 35.2570849, -15.2518916 ] } },
{ "type": "Feature", "properties": { "osm_id": "9359979107", "name": "El Rapha Kalombo Pvt Clinic", "barrier": null, "highway": null, "ref": null, "address": null, "is_in": null, "place": null, "man_made": null, "other_tags": "\"amenity\"=>\"clinic\",\"condition\"=>\"fair\",\"healthcare\"=>\"clinic\",\"opening_hours\"=>\"24\/7\",\"operator\"=>\"Individual\",\"operator:type\"=>\"private\"" }, "geometry": { "type": "Point", "coordinates": [ 33.8687832, -13.6539586 ] } },
{ "type": "Feature", "properties": { "osm_id": "9359979108", "name": "Dzaleka Healthcare Center", "barrier": null, "highway": null, "ref": null, "address": null, "is_in": null, "place": null, "man_made": null, "other_tags": "\"amenity\"=>\"clinic\",\"condition\"=>\"good\",\"healthcare\"=>\"clinic\",\"operator\"=>\"UN agency\",\"operator:type\"=>\"ngo\"" }, "geometry": { "type": "Point", "coordinates": [ 33.870307, -13.6617774 ] } },
{ "type": "Feature", "properties": { "osm_id": "9359979109", "name": "Dzaleka Covid 19 Isolation Center", "barrier": null, "highway": null, "ref": null, "address": null, "is_in": null, "place": null, "man_made": null, "other_tags": "\"amenity\"=>\"hospital\",\"condition\"=>\"fair\",\"healthcare\"=>\"hospital\",\"opening_hours\"=>\"24\/7\",\"operator\"=>\"UN agency\",\"operator:type\"=>\"ngo\"" }, "geometry": { "type": "Point", "coordinates": [ 33.8695542, -13.6603181 ] } },
{ "type": "Feature", "properties": { "osm_id": "9359979110", "name": "Kids Living With Disability", "barrier": null, "highway": null, "ref": null, "address": null, "is_in": null, "place": null, "man_made": null, "other_tags": "\"amenity\"=>\"clinic\",\"condition\"=>\"fair\",\"healthcare\"=>\"clinic\",\"operator\"=>\"NGO\",\"operator:type\"=>\"ngo\"" }, "geometry": { "type": "Point", "coordinates": [ 33.8693424, -13.6621807 ] } },
{ "type": "Feature", "properties": { "osm_id": "9359979111", "name": "Hope Family Clinic", "barrier": null, "highway": null, "ref": null, "address": null, "is_in": null, "place": null, "man_made": null, "other_tags": "\"amenity\"=>\"clinic\",\"condition\"=>\"fair\",\"healthcare\"=>\"clinic\",\"opening_hours\"=>\"24\/7\",\"operator\"=>\"Individual\",\"operator:type\"=>\"private\"" }, "geometry": { "type": "Point", "coordinates": [ 33.8701264, -13.6692997 ] } },
{ "type": "Feature", "properties": { "osm_id": "9657873305", "name": "Limbe Central Hospital", "barrier": null, "highway": null, "ref": null, "address": null, "is_in": null, "place": null, "man_made": null, "other_tags": "\"amenity\"=>\"hospital\",\"healthcare\"=>\"hospital\"" }, "geometry": { "type": "Point", "coordinates": [ 35.0521836, -15.8169345 ] } },
{ "type": "Feature", "properties": { "osm_id": "9774948501", "name": null, "barrier": null, "highway": null, "ref": null, "address": null, "is_in": null, "place": null, "man_made": null, "other_tags": "\"amenity\"=>\"pharmacy\",\"dispensing\"=>\"yes\",\"healthcare\"=>\"pharmacy\"" }, "geometry": { "type": "Point", "coordinates": [ 35.3467871, -15.3676001 ] } },
{ "type": "Feature", "properties": { "osm_id": "9969322377", "name": "Kamfutu Health Post", "barrier": null, "highway": null, "ref": null, "address": null, "is_in": null, "place": null, "man_made": null, "other_tags": "\"addr:constituency\"=>\"Chama North\",\"addr:district\"=>\"Chama\",\"addr:province\"=>\"Muchinga\",\"addr:ward\"=>\"Mphalausenga\",\"amenity\"=>\"clinic\"" }, "geometry": { "type": "Point", "coordinates": [ 33.3588643, -11.2514784 ] } },
{ "type": "Feature", "properties": { "osm_id": "10153818617", "name": null, "barrier": null, "highway": null, "ref": null, "address": null, "is_in": null, "place": null, "man_made": null, "other_tags": "\"amenity\"=>\"clinic\",\"name:en\"=>\"Kasese Health Center\"" }, "geometry": { "type": "Point", "coordinates": [ 33.576428, -13.3335877 ] } },
{ "type": "Feature", "properties": { "osm_id": "10266988313", "name": "Mzimba South District Hospital", "barrier": null, "highway": null, "ref": null, "address": null, "is_in": null, "place": null, "man_made": null, "other_tags": "\"amenity\"=>\"hospital\",\"healthcare\"=>\"hospital\"" }, "geometry": { "type": "Point", "coordinates": [ 33.5843626, -11.8989048 ] } },
{ "type": "Feature", "properties": { "osm_id": "10267145109", "name": "Kawale", "barrier": null, "highway": null, "ref": null, "address": null, "is_in": null, "place": null, "man_made": null, "other_tags": "\"addr:city\"=>\"Lilongwe\",\"amenity\"=>\"clinic\",\"electricity\"=>\"grid\",\"healthcare\"=>\"clinic\",\"healthcare:speciality\"=>\"maternity;dentist;internal;gynaecology\",\"insurance:health\"=>\"public\",\"opening_hours\"=>\"24\/7\",\"operational_status\"=>\"operational\"" }, "geometry": { "type": "Point", "coordinates": [ 33.7976521, -13.992061 ] } },
{ "type": "Feature", "properties": { "osm_id": "10563246152", "name": "Madziabango Health Center", "barrier": null, "highway": null, "ref": null, "address": null, "is_in": null, "place": null, "man_made": null, "other_tags": "\"amenity\"=>\"clinic\"" }, "geometry": { "type": "Point", "coordinates": [ 34.9087036, -15.9676986 ] } },
{ "type": "Feature", "properties": { "osm_id": "10582222586", "name": "Namwera Health Center", "barrier": null, "highway": null, "ref": null, "address": null, "is_in": null, "place": null, "man_made": null, "other_tags": "\"amenity\"=>\"clinic\",\"operator\"=>\"Ministry of Health\"" }, "geometry": { "type": "Point", "coordinates": [ 35.5024494, -14.3639861 ] } },
{ "type": "Feature", "properties": { "osm_id": "10758563999", "name": "Osiyana Health Center", "barrier": null, "highway": null, "ref": null, "address": null, "is_in": null, "place": null, "man_made": null, "other_tags": "\"amenity\"=>\"health_post\",\"emergency\"=>\"no\",\"healthcare\"=>\"health_post\"" }, "geometry": { "type": "Point", "coordinates": [ 35.2259138, -16.4734089 ] } },
{ "type": "Feature", "properties": { "osm_id": "10900384874", "name": "Nkhwazi Health Centre", "barrier": null, "highway": null, "ref": null, "address": null, "is_in": null, "place": null, "man_made": null, "other_tags": "\"amenity\"=>\"clinic\",\"ref:MoHMW\"=>\"MC011206\"" }, "geometry": { "type": "Point", "coordinates": [ 33.2265855, -13.9235786 ] } },
{ "type": "Feature", "properties": { "osm_id": "11183317604", "name": null, "barrier": null, "highway": null, "ref": null, "address": null, "is_in": null, "place": null, "man_made": null, "other_tags": "\"amenity\"=>\"hospital\",\"healthcare\"=>\"hospital\"" }, "geometry": { "type": "Point", "coordinates": [ 34.9687526, -16.6945456 ] } },
{ "type": "Feature", "properties": { "osm_id": "11384948982", "name": null, "barrier": null, "highway": null, "ref": null, "address": null, "is_in": null, "place": null, "man_made": null, "other_tags": "\"amenity\"=>\"pharmacy\"" }, "geometry": { "type": "Point", "coordinates": [ 34.2979914, -11.6078193 ] } },
{ "type": "Feature", "properties": { "osm_id": "11384969353", "name": null, "barrier": null, "highway": null, "ref": null, "address": null, "is_in": null, "place": null, "man_made": null, "other_tags": "\"amenity\"=>\"clinic\",\"operator\"=>\"Private\"" }, "geometry": { "type": "Point", "coordinates": [ 34.2949699, -11.6084302 ] } },
{ "type": "Feature", "properties": { "osm_id": "11384982815", "name": "Chipatala Health Clinic", "barrier": null, "highway": null, "ref": null, "address": null, "is_in": null, "place": null, "man_made": null, "other_tags": "\"amenity\"=>\"hospital\",\"operator\"=>\"Private\"" }, "geometry": { "type": "Point", "coordinates": [ 34.2973383, -11.6102279 ] } },
{ "type": "Feature", "properties": { "osm_id": "12076544239", "name": "Pleasant Pharmacy", "barrier": null, "highway": null, "ref": null, "address": null, "is_in": null, "place": null, "man_made": null, "other_tags": "\"amenity\"=>\"pharmacy\",\"healthcare\"=>\"pharmacy\"" }, "geometry": { "type": "Point", "coordinates": [ 35.0101443, -15.8053917 ] } },
{ "type": "Feature", "properties": { "osm_id": "12137775424", "name": "Manota Health Post", "barrier": null, "highway": null, "ref": null, "address": null, "is_in": null, "place": null, "man_made": null, "other_tags": "\"amenity\"=>\"clinic\"" }, "geometry": { "type": "Point", "coordinates": [ 32.9920771, -14.0020003 ] } },
{ "type": "Feature", "properties": { "osm_id": "12137797164", "name": "Sindemisale Rural Health Centre", "barrier": null, "highway": null, "ref": null, "address": null, "is_in": null, "place": null, "man_made": null, "other_tags": "\"amenity\"=>\"clinic\"" }, "geometry": { "type": "Point", "coordinates": [ 33.0602843, -14.0284456 ] } },
{ "type": "Feature", "properties": { "osm_id": "12231334534", "name": "Lusuntha Rural Health Centre", "barrier": null, "highway": null, "ref": null, "address": null, "is_in": null, "place": null, "man_made": null, "other_tags": "\"amenity\"=>\"clinic\"" }, "geometry": { "type": "Point", "coordinates": [ 33.307947, -12.244821 ] } },
{ "type": "Feature", "properties": { "osm_id": "12460738117", "name": "Home Care", "barrier": null, "highway": null, "ref": null, "address": null, "is_in": null, "place": null, "man_made": null, "other_tags": "\"amenity\"=>\"pharmacy\"" }, "geometry": { "type": "Point", "coordinates": [ 33.7910189, -13.9395176 ] } },
{ "type": "Feature", "properties": { "osm_id": "12485865777", "name": "Lingadzi MASM clinic", "barrier": null, "highway": null, "ref": null, "address": null, "is_in": null, "place": null, "man_made": null, "other_tags": "\"amenity\"=>\"clinic\"" }, "geometry": { "type": "Point", "coordinates": [ 33.7779716, -13.9645156 ] } },
{ "type": "Feature", "properties": { "osm_id": "12645142188", "name": "Namasalima health centre", "barrier": null, "highway": null, "ref": null, "address": null, "is_in": null, "place": null, "man_made": null, "other_tags": "\"amenity\"=>\"hospital\",\"healthcare\"=>\"hospital\",\"healthcare:speciality\"=>\"general\"" }, "geometry": { "type": "Point", "coordinates": [ 35.7154854, -16.0802853 ] } },
{ "type": "Feature", "properties": { "osm_id": "12744152686", "name": "Bimbi Health Centre", "barrier": null, "highway": null, "ref": null, "address": null, "is_in": null, "place": null, "man_made": null, "other_tags": "\"amenity\"=>\"hospital\",\"healthcare\"=>\"hospital\"" }, "geometry": { "type": "Point", "coordinates": [ 35.4795638, -15.3088769 ] } },
{ "type": "Feature", "properties": { "osm_id": "12744168780", "name": "Namasalima Health Centre", "barrier": null, "highway": null, "ref": null, "address": null, "is_in": null, "place": null, "man_made": null, "other_tags": "\"amenity\"=>\"clinic\",\"healthcare\"=>\"clinic\"" }, "geometry": { "type": "Point", "coordinates": [ 35.4886665, -15.2316957 ] } },
{ "type": "Feature", "properties": { "osm_id": "12744198059", "name": "Chipini Health Centre", "barrier": null, "highway": null, "ref": null, "address": null, "is_in": null, "place": null, "man_made": null, "other_tags": "\"amenity\"=>\"hospital\",\"healthcare\"=>\"hospital\"" }, "geometry": { "type": "Point", "coordinates": [ 35.0949487, -15.3897385 ] } },
{ "type": "Feature", "properties": { "osm_id": "12745802771", "name": "St Luke's Hospital", "barrier": null, "highway": null, "ref": null, "address": null, "is_in": null, "place": null, "man_made": null, "other_tags": "\"amenity\"=>\"hospital\",\"healthcare\"=>\"hospital\"" }, "geometry": { "type": "Point", "coordinates": [ 35.3528785, -15.2084617 ] } },
{ "type": "Feature", "properties": { "osm_id": "12745842056", "name": "Alshefaa Health Centre (Machilitso Health Centre)", "barrier": null, "highway": null, "ref": null, "address": null, "is_in": null, "place": null, "man_made": null, "other_tags": "\"amenity\"=>\"hospital\",\"healthcare\"=>\"hospital\"" }, "geometry": { "type": "Point", "coordinates": [ 35.4070234, -15.4515689 ] } },
{ "type": "Feature", "properties": { "osm_id": "12745850004", "name": "ONSE Health Activity", "barrier": null, "highway": null, "ref": null, "address": null, "is_in": null, "place": null, "man_made": null, "other_tags": "\"amenity\"=>\"hospital\",\"healthcare\"=>\"hospital\"" }, "geometry": { "type": "Point", "coordinates": [ 35.3596576, -15.3900321 ] } },
{ "type": "Feature", "properties": { "osm_id": "12745853724", "name": "Zomba MASM Medi-Clinic & MASM Sales Office", "barrier": null, "highway": null, "ref": null, "address": null, "is_in": null, "place": null, "man_made": null, "other_tags": "\"amenity\"=>\"hospital\",\"healthcare\"=>\"hospital\"" }, "geometry": { "type": "Point", "coordinates": [ 35.3315397, -15.3783363 ] } },
{ "type": "Feature", "properties": { "osm_id": "12745862908", "name": "Domasi College Clinic", "barrier": null, "highway": null, "ref": null, "address": null, "is_in": null, "place": null, "man_made": null, "other_tags": "\"amenity\"=>\"hospital\",\"healthcare\"=>\"hospital\"" }, "geometry": { "type": "Point", "coordinates": [ 35.3940614, -15.277315 ] } },
{ "type": "Feature", "properties": { "osm_id": "12860610990", "name": "DNA Hub Africa", "barrier": null, "highway": null, "ref": null, "address": null, "is_in": null, "place": null, "man_made": null, "other_tags": "\"addr:city\"=>\"Lilongwe\",\"addr:housenumber\"=>\"First Floor Office\",\"addr:postcode\"=>\"1844\",\"addr:street\"=>\"European Business Centre 03, Area 3\",\"amenity\"=>\"hospital\",\"contact:facebook\"=>\"https:\/\/www.facebook.com\/dnahubafrica\",\"description\"=>\"DNA Testing Services including paternity testing, relationship testing, ancestry testing, clinical testing, health and wellbeing tests.\",\"healthcare\"=>\"hospital\",\"mobile\"=>\"+265885436151\",\"opening_hours\"=>\"24\/7\",\"website\"=>\"https:\/\/www.dnahubafrica.com\/\",\"wheelchair\"=>\"yes\"" }, "geometry": { "type": "Point", "coordinates": [ 33.7661723, -13.9862933 ] } },
{ "type": "Feature", "properties": { "osm_id": "13017238445", "name": "kallumbu hospital", "barrier": null, "highway": null, "ref": null, "address": null, "is_in": null, "place": null, "man_made": null, "other_tags": "\"amenity\"=>\"hospital\",\"healthcare\"=>\"hospital\",\"operator\"=>\"government\",\"operator:type\"=>\"public\"" }, "geometry": { "type": "Point", "coordinates": [ 33.9427904, -14.1381802 ] } },
{ "type": "Feature", "properties": { "osm_id": "13503206353", "name": "Mgoza Health Clinic", "barrier": null, "highway": null, "ref": null, "address": null, "is_in": null, "place": null, "man_made": null, "other_tags": "\"amenity\"=>\"clinic\",\"healthcare\"=>\"clinic\"" }, "geometry": { "type": "Point", "coordinates": [ 33.8311736, -12.6728769 ] } }
]
}
